City,Latitude,Longitude,Max Temp,Humidity,Cloudiness,Wind Speed,Country,Date
zhovtneve,50.6637,24.2492,67.03,69,9,5.55,UA,1626040070
bluff,-46.6,168.3333,43.84,83,100,15.41,NZ,1626040070
luderitz,-26.6481,15.1594,54.45,83,12,4.99,NA,1626040071
sivas,39.7916,37.0019,59.63,94,0,3.44,TR,1626040071
mar del plata,-38.0023,-57.5575,55.87,57,0,10.0,AR,1626039887
kaka,37.3482,59.6143,82.49,29,5,0.45,TM,1626040071
arraial do cabo,-22.9661,-42.0278,69.66,83,0,5.75,BR,1626039864
lakinsk,56.0193,39.9485,61.43,72,0,5.68,RU,1626039973
punta arenas,-53.15,-70.9167,35.71,80,20,36.82,CL,1626040071
rikitea,-23.1203,-134.9692,73.71,82,48,21.72,PF,1626040072
airai,-8.9266,125.4092,55.18,55,99,4.21,TL,1626040072
almaznyy,48.0448,40.045,68.14,74,10,7.45,RU,1626040072
dikson,73.5069,80.5464,33.6,99,100,15.37,RU,1626040072
albany,42.6001,-73.9662,69.37,93,100,4.56,US,1626040041
victoria point,-27.5833,153.3,60.19,86,19,1.01,AU,1626040073
hobart,-42.8794,147.3294,41.27,91,75,4.0,AU,1626039844
kodiak,57.79,-152.4072,51.31,82,90,14.97,US,1626040073
nikolskoye,59.7035,30.7861,69.69,85,1,4.38,RU,1626040073
atuona,-9.8,-139.0333,77.23,80,46,25.08,PF,1626040073
ormara,25.2088,64.6357,82.13,84,84,6.82,PK,1626040074
barranca,-10.75,-77.7667,65.64,76,30,6.58,PE,1626040074
kisanga,-7.4362,37.7034,67.71,88,26,2.42,TZ,1626040074
grand-santi,4.25,-54.3833,74.32,95,88,4.0,GF,1626040074
kapit,2.0167,112.9333,72.72,100,93,1.12,MY,1626040074
cidreira,-30.1811,-50.2056,60.3,90,0,6.08,BR,1626040075
dingle,10.9995,122.6711,76.75,90,40,4.88,PH,1626040075
verkhnyachka,48.8285,30.0396,67.53,73,5,5.75,UA,1626040075
busselton,-33.65,115.3333,55.04,93,100,22.28,AU,1626040075
unity,52.4501,-109.1682,64.69,70,100,12.77,CA,1626040076
sao filipe,14.8961,-24.4956,72.55,75,65,7.02,CV,1626040076
ramshir,30.8946,49.4092,96.55,8,0,12.35,IR,1626040076
ixtapa,20.7,-105.2,89.22,77,98,5.99,MX,1626040076
saldanha,-33.0117,17.9442,46.45,89,3,10.67,ZA,1626040077
bereda,43.2686,-7.5406,59.41,86,99,3.11,ES,1626040077
camacha,33.0833,-16.3333,70.56,78,40,12.66,PT,1626040077
nouadhibou,20.931,-17.0347,69.78,88,0,9.22,MR,1626040077
nakamura,32.9833,132.9333,74.91,93,100,3.74,JP,1626040078
maumere,-8.6199,122.2111,75.67,69,35,4.61,ID,1626040078
jamestown,42.097,-79.2353,69.39,97,90,5.01,US,1626039928
arrecife,28.963,-13.5477,75.18,78,0,17.27,ES,1626040078
charlestown,-32.95,151.6667,48.69,97,91,1.01,AU,1626040078
saint anthony,45.0205,-93.218,88.79,38,1,1.99,US,1626040079
butaritari,3.0707,172.7902,82.31,75,88,11.99,KI,1626040079
andenes,69.3143,16.1194,58.06,94,40,6.91,NO,1626040079
mahebourg,-20.4081,57.7,71.26,78,75,12.66,MU,1626040079
new norfolk,-42.7826,147.0587,40.91,87,100,2.71,AU,1626040079
khatanga,71.9667,102.5,48.87,46,90,7.47,RU,1626040080
broome,42.2506,-75.833,68.02,89,100,1.99,US,1626040080
esperance,-33.8667,121.9,44.44,76,71,16.4,AU,1626040080
ugoofaaru,5.6667,73.0,81.79,80,100,16.62,MV,1626040081
saskylakh,71.9167,114.0833,46.44,46,39,14.36,RU,1626040081
mataura,-46.1927,168.8643,36.84,88,100,2.62,NZ,1626040081
atotonilco el grande,20.2833,-98.6667,66.79,67,99,11.63,MX,1626040082
joura,26.3411,77.8115,88.07,65,100,12.19,IN,1626040082
vetluzhskiy,58.3902,45.4654,56.03,75,2,3.36,RU,1626040082
khash,28.2211,61.2158,84.24,23,37,2.64,IR,1626040082
jamame,0.0722,42.7506,74.53,84,53,12.53,SO,1626040083
mitzic,0.7821,11.549,68.79,93,44,3.83,GA,1626040083
shatrovo,56.5167,64.6333,51.8,74,100,11.1,RU,1626040083
hithadhoo,-0.6,73.0833,81.19,71,49,2.21,MV,1626040083
carnarvon,-24.8667,113.6333,66.27,87,75,12.66,AU,1626040083
east london,-33.0153,27.9116,65.91,27,0,8.3,ZA,1626039856
port elizabeth,-33.918,25.5701,46.69,81,40,5.75,ZA,1626040081
netrakona,24.8833,90.7167,81.03,79,100,3.13,BD,1626040084
yenagoa,4.9247,6.2642,74.8,92,100,4.56,NG,1626040084
samarai,-10.6167,150.6667,79.5,85,72,13.13,PG,1626040084
mancio lima,-7.6142,-72.8958,75.27,100,75,12.66,BR,1626040085
wukari,7.85,9.7833,75.31,87,42,6.35,NG,1626040085
hermanus,-34.4187,19.2345,52.66,68,55,9.28,ZA,1626040085
alice springs,-23.7,133.8833,44.15,61,6,3.44,AU,1626039792
anadyr,64.75,177.4833,59.5,72,0,4.0,RU,1626040085
mutoko,-17.397,32.2268,52.18,77,39,4.74,ZW,1626040086
chokurdakh,70.6333,147.9167,40.42,81,100,16.2,RU,1626040086
sechura,-5.5569,-80.8222,73.4,66,54,14.79,PE,1626040086
belyy yar,53.6039,91.3903,55.29,88,0,2.24,RU,1626040086
ganzhou,28.8184,115.4327,77.09,83,83,5.44,CN,1626040087
lebu,-37.6167,-73.65,49.35,74,12,14.09,CL,1626040087
mildura,-34.2,142.15,48.16,57,75,9.22,AU,1626040087
port alfred,-33.5906,26.891,64.06,30,0,8.37,ZA,1626040087
saint george,37.1041,-113.5841,113.47,14,1,5.99,US,1626039904
mehkar,20.1508,76.569,78.04,83,100,6.58,IN,1626040088
helong,42.5397,128.9972,69.15,93,5,3.36,CN,1626040088
ribeira grande,38.5167,-28.7,67.71,71,100,17.22,PT,1626040026
beloha,-25.1667,45.05,62.92,90,0,4.94,MG,1626040088
kushima,31.4583,131.2333,78.84,87,100,4.38,JP,1626040088
changji,44.0167,87.3167,68.79,73,75,11.18,CN,1626040089
kargasok,59.0556,80.8572,51.48,80,99,4.05,RU,1626040089
helena,46.5927,-112.0361,97.25,17,1,13.0,US,1626039840
staryy nadym,65.6118,72.6842,48.16,76,92,10.78,RU,1626040089
sobolevo,54.4299,31.8996,69.37,75,76,5.75,RU,1626040089
saint-augustin,51.226,-58.6502,58.28,89,100,3.24,CA,1626040090
cherskiy,68.75,161.3,80.58,35,7,25.14,RU,1626040090
naze,28.3667,129.4833,77.92,85,100,6.76,JP,1626040090
umm lajj,25.0213,37.2685,86.36,54,6,7.54,SA,1626040090
puerto ayora,-0.7393,-90.3518,78.76,82,27,8.01,EC,1626040091
huilong,31.8111,121.655,80.98,90,100,8.25,CN,1626040091
worthing,50.8145,-0.3713,59.99,87,100,3.0,GB,1626039960
hovd,48.0056,91.6419,63.14,48,100,7.56,MN,1626040091
cascais,38.6979,-9.4215,67.51,72,4,8.01,PT,1626040091
faanui,-16.4833,-151.75,79.29,79,26,18.77,PF,1626040092
ushuaia,-54.8,-68.3,33.46,86,40,21.85,AR,1626039887
hotaka,36.3396,137.8825,71.4,88,99,2.35,JP,1626040092
dengzhou,37.8086,120.7508,76.98,84,100,6.82,CN,1626040092
omsukchan,62.5333,155.8,56.26,75,89,11.01,RU,1626040092
saint-philippe,-21.3585,55.7679,67.55,77,59,11.21,RE,1626040092
aranos,-24.1333,19.1167,54.39,28,0,13.65,NA,1626040093
tuktoyaktuk,69.4541,-133.0374,53.6,82,90,24.16,CA,1626040093
katsuura,35.1333,140.3,79.11,86,65,3.04,JP,1626040093
flin flon,54.7682,-101.865,87.64,37,75,9.22,CA,1626040094
shalya,57.2471,58.7298,46.99,80,14,4.05,RU,1626040094
sandwick,60.0,-1.25,57.02,94,90,2.3,GB,1626040094
paamiut,61.994,-49.6678,43.7,93,100,6.44,GL,1626040094
namie,37.4833,141.0,74.71,95,9,2.01,JP,1626040094
auki,-8.7676,160.7034,81.39,76,99,2.91,SB,1626040095
vaini,-21.2,-175.2,77.16,94,20,10.36,TO,1626040095
grand gaube,-20.0064,57.6608,71.38,73,30,8.01,MU,1626040095
syracuse,37.0881,15.2792,77.9,71,0,7.09,IT,1626040095
mufulira,-12.5498,28.2407,43.0,64,15,4.94,ZM,1626040096
coahuayana,18.7333,-103.6833,86.49,70,94,5.37,MX,1626040096
manzhouli,49.6,117.4333,64.26,71,98,5.95,CN,1626040096
havoysund,70.9963,24.6622,58.08,80,4,13.4,NO,1626040096
awjilah,29.1081,21.2869,81.21,63,0,14.74,LY,1626040097
cape town,-33.9258,18.4232,54.12,83,75,12.66,ZA,1626039926
thompson,55.7435,-97.8558,73.56,60,75,16.11,CA,1626040097
vavuniya,8.7514,80.4971,78.57,77,100,9.51,LK,1626040097
tutoia,-2.7619,-42.2744,80.2,80,92,11.23,BR,1626040097
avarua,-21.2078,-159.775,80.65,74,75,11.5,CK,1626040098
pisco,-13.7,-76.2167,65.01,82,20,9.22,PE,1626040098
kurtamysh,54.9103,64.4319,54.52,95,100,17.81,RU,1626040098
gisborne,-38.6533,178.0042,50.67,63,100,11.61,NZ,1626040098
saryg-sep,51.5,95.6,53.44,85,52,2.46,RU,1626040099
dicabisagan,17.0818,122.4157,79.99,86,100,0.85,PH,1626040099
yar-sale,66.8333,70.8333,42.67,65,72,7.58,RU,1626040099
asfi,32.2994,-9.2372,79.95,57,98,3.83,MA,1626040099
barrow,71.2906,-156.7887,33.82,73,90,11.5,US,1626040100
shelbyville,35.4834,-86.4603,83.01,89,75,11.5,US,1626040088
obo,5.3998,26.4869,66.96,98,100,3.65,CF,1626040100
ust-tsilma,65.441,52.1498,40.42,87,27,3.96,RU,1626040100
severo-kurilsk,50.6789,156.125,53.56,92,100,7.05,RU,1626040100
port lincoln,-34.7333,135.8667,56.59,78,85,17.31,AU,1626039916
ararat,39.8317,44.7049,75.54,47,7,8.72,AM,1626040101
tingo maria,-9.2895,-76.0088,73.92,94,44,1.16,PE,1626040101
dahra,36.2546,0.8519,97.99,45,3,6.46,DZ,1626040101
talnakh,69.4865,88.3972,45.27,92,100,10.67,RU,1626040101
pontianak,-0.0333,109.3333,75.18,100,75,1.14,ID,1626040102
juegang,32.3174,121.1855,79.65,90,100,7.23,CN,1626040102
shahe,39.2708,113.5478,65.5,95,100,3.15,CN,1626040102
lompoc,34.6391,-120.4579,98.69,59,1,14.97,US,1626040102
tulucesti,45.5667,28.0333,68.34,72,31,6.02,RO,1626040103
labuan,5.2767,115.2417,77.16,100,40,0.0,MY,1626040103
jumla,29.2747,82.1838,61.83,96,100,3.31,NP,1626040103
hilo,19.7297,-155.09,78.8,75,40,9.22,US,1626040103
de aar,-30.6497,24.0123,50.38,35,20,9.22,ZA,1626040104
kirzhach,56.15,38.8667,62.02,73,0,5.26,RU,1626040104
ceuta,35.8903,-5.3075,77.11,67,94,11.65,ES,1626040104
nanortalik,60.1432,-45.2371,41.41,99,100,2.8,GL,1626040104
rozivka,46.9385,35.7724,72.61,60,77,9.1,UA,1626040105
tagusao,9.1924,117.8141,79.48,86,94,6.2,PH,1626040105
rio gallegos,-51.6226,-69.2181,37.45,65,0,36.82,AR,1626040105
inta,66.0317,60.1659,39.6,78,40,8.57,RU,1626040105
cabedelo,-6.9811,-34.8339,75.87,81,11,13.44,BR,1626040106
puerto baquerizo moreno,-0.9,-89.6,71.26,76,19,11.95,EC,1626040106
kapaa,22.0752,-159.319,86.32,72,40,3.0,US,1626040106
bathsheba,13.2167,-59.5167,83.01,83,75,24.16,BB,1626040107
mount gambier,-37.8333,140.7667,48.11,71,75,14.97,AU,1626040107
bethel,41.3712,-73.414,77.63,86,90,6.91,US,1626040107
half moon bay,37.4636,-122.4286,96.15,63,20,10.36,US,1626039982
luau,-10.7073,22.2247,58.01,35,0,4.74,AO,1626040107
karasjok,69.4719,25.5112,51.91,72,100,10.47,NO,1626040108
souillac,-20.5167,57.5167,71.37,78,75,12.66,MU,1626040108
mezen,65.8522,44.24,43.61,79,11,5.28,RU,1626040108
bridlington,54.0831,-0.1919,62.62,92,100,11.32,GB,1626040108
mareeba,-17.0,145.4333,65.12,84,100,2.62,AU,1626040108
kahului,20.8947,-156.47,84.22,59,20,23.02,US,1626040109
vostok,46.4856,135.8833,68.23,85,99,1.16,RU,1626040109
tasiilaq,65.6145,-37.6368,46.56,99,100,9.46,GL,1626040109
ahipara,-35.1667,173.1667,53.55,91,100,22.24,NZ,1626040109
padang,-0.9492,100.3543,75.25,87,98,4.16,ID,1626040110
khandbari,27.3747,87.2039,72.41,88,96,0.89,NP,1626040110
sao mateus,-18.7161,-39.8589,68.72,79,27,5.26,BR,1626040110
jever,53.5833,7.9,67.01,94,75,4.61,DE,1626040111
cayeli,41.0923,40.7292,73.99,86,98,3.13,TR,1626040111
longyearbyen,78.2186,15.6401,40.84,81,40,12.66,SJ,1626039901
winnemucca,40.973,-117.7357,102.25,10,1,3.44,US,1626040112
upernavik,72.7868,-56.1549,39.0,72,9,13.35,GL,1626040112
xining,36.6167,101.7667,51.64,73,2,2.68,CN,1626040112
gat,31.61,34.7642,81.39,100,0,1.68,IL,1626040112
san cristobal,7.7669,-72.225,80.78,64,98,4.41,VE,1626040113
svobodnyy,51.4,128.1333,69.48,67,68,2.42,RU,1626040113
sibolga,1.7427,98.7792,74.97,92,100,1.95,ID,1626040113
fortuna,40.5982,-124.1573,101.48,83,40,11.5,US,1626040113
carutapera,-1.195,-46.02,76.69,91,95,7.47,BR,1626040114
mangan,27.5167,88.5333,75.51,87,76,2.06,IN,1626040114
tukrah,32.5341,20.5791,78.06,67,0,14.25,LY,1626040114
cabo san lucas,22.8909,-109.9124,96.8,64,10,13.35,MX,1626040114
chuy,-33.6971,-53.4616,48.33,70,0,5.68,UY,1626040115
azul,-36.777,-59.8585,47.93,57,20,6.49,AR,1626040115
launceston,-41.45,147.1667,44.15,100,100,6.91,AU,1626040115
badnawar,23.0167,75.2167,82.96,71,94,5.06,IN,1626040115
hohhot,40.8106,111.6522,70.09,78,20,6.71,CN,1626040116
krasnoselkup,65.7,82.4667,47.34,60,65,7.43,RU,1626040116
katoro,-3.0203,31.8958,65.16,47,63,5.68,TZ,1626040116
riachao do dantas,-11.0689,-37.725,68.16,91,16,4.68,BR,1626040116
namatanai,-3.6667,152.4333,81.3,76,78,7.74,PG,1626040117
lagoa,39.05,-27.9833,66.22,71,100,15.32,PT,1626040117
bell ville,-32.6259,-62.6887,57.81,43,93,7.72,AR,1626040117
torbay,47.6666,-52.7314,63.48,93,90,2.3,CA,1626040117
antalaha,-14.9003,50.2788,67.89,93,44,6.91,MG,1626040118
butterworth,5.3991,100.3638,75.24,98,40,0.0,MY,1626040118
urdoma,61.7533,48.5442,57.65,74,14,5.12,RU,1626040118
cuamba,-14.8031,36.5372,64.15,74,38,2.04,MZ,1626040118
berlevag,70.8578,29.0864,51.6,87,0,14.97,NO,1626040118
kamenka,51.3223,42.7678,66.15,70,0,7.54,RU,1626040119
makinsk,52.6292,70.4169,67.15,52,100,5.84,KZ,1626040119
vila velha,-20.3297,-40.2925,71.55,83,0,4.61,BR,1626039977
asau,46.4333,26.4,66.4,99,98,4.79,RO,1626040119
bredasdorp,-34.5322,20.0403,43.92,81,42,6.91,ZA,1626040119
mahdasht,35.7299,50.8111,84.42,56,0,13.8,IR,1626040120
comodoro rivadavia,-45.8667,-67.5,51.66,24,0,27.63,AR,1626040120
phan thiet,10.9333,108.1,76.91,87,88,5.53,VN,1626040120
puerto quijarro,-17.7833,-57.7667,77.81,28,49,1.36,BO,1626040120
ortakoy,38.7373,34.0387,68.25,57,11,3.33,TR,1626040121
lixourion,38.2019,20.4314,76.87,73,0,3.51,GR,1626040121
mamlyutka,54.9375,68.5394,60.98,97,100,10.38,KZ,1626040121
morgan city,29.6994,-91.2068,89.6,70,75,12.66,US,1626040121
kindu,-2.95,25.95,70.92,37,50,2.98,CD,1626040121
alta floresta,-9.8756,-56.0861,78.1,32,54,2.33,BR,1626040122
jacareacanga,-6.2222,-57.7528,84.69,43,94,0.89,BR,1626040122
ashington,50.9331,-0.3909,60.89,87,100,4.72,GB,1626040122
vao,-22.6667,167.4833,70.52,64,43,17.38,NC,1626040122
buraydah,26.326,43.975,97.25,9,74,9.44,SA,1626040123
rocha,-34.4833,-54.3333,46.98,65,4,5.12,UY,1626040123
oktyabrskoye,43.0645,44.7417,59.14,93,66,6.71,RU,1626040123
nishihara,26.1842,127.7558,83.48,89,75,0.0,JP,1626040124
sidney,-33.8679,151.2073,50.72,93,75,1.99,AU,1626039906
yumen,40.2833,97.2,72.34,39,0,5.3,CN,1626040124
egvekinot,66.3167,-179.1667,52.57,73,65,5.66,RU,1626040124
olafsvik,64.8945,-23.7142,54.39,88,85,8.84,IS,1626040124
maniitsoq,65.4167,-52.9,45.03,73,36,2.57,GL,1626040125
thinadhoo,0.5333,72.9333,81.39,72,80,5.37,MV,1626040125
dukat,62.55,155.55,58.55,66,44,10.42,RU,1626040125
bengkulu,-3.8004,102.2655,75.13,88,100,4.72,ID,1626040125
narsaq,60.9167,-46.05,48.42,99,100,5.66,GL,1626040126
kirakira,-10.4544,161.9205,82.04,79,47,7.99,SB,1626040126
dunkirk,51.05,2.3667,62.47,90,100,6.85,FR,1626040126
saint-joseph,-21.3667,55.6167,66.56,75,45,12.03,RE,1626040126
clyde river,70.4692,-68.5914,50.23,66,75,11.5,CA,1626040126
provideniya,64.3833,-173.3,53.71,66,0,6.71,RU,1626040127
montefiascone,42.5393,12.0362,69.48,84,0,3.0,IT,1626040127
erenhot,43.6475,111.9767,77.63,54,94,8.43,CN,1626040127
dalvik,65.9702,-18.5286,55.33,83,100,2.68,IS,1626039965
ponta do sol,32.6667,-17.1,74.03,70,2,5.93,PT,1626040127
chiang klang,19.2938,100.8617,73.42,96,30,1.45,TH,1626040128
flinders,-34.5833,150.8552,47.21,92,100,1.01,AU,1626040025
ilulissat,69.2167,-51.1,51.82,54,67,3.44,GL,1626040128
porto novo,6.4965,2.6036,78.62,83,41,6.73,BJ,1626040128
port hardy,50.6996,-127.4199,64.58,68,20,14.97,CA,1626040128
sao joao da barra,-21.6403,-41.0511,71.69,83,0,8.03,BR,1626040129
arlit,18.7369,7.3853,93.45,15,0,5.32,NE,1626040129
khor,47.8861,134.9464,70.95,91,80,4.56,RU,1626040129
rawson,-43.3002,-65.1023,51.58,49,100,8.7,AR,1626040129
korla,41.7597,86.1469,76.44,38,99,13.33,CN,1626040130
almaty,43.25,76.95,66.11,56,75,4.47,KZ,1626039966
mankato,44.1636,-93.9994,84.49,48,1,8.05,US,1626040017
kaitangata,-46.2817,169.8464,40.93,74,100,7.29,NZ,1626040130
jobat,22.4167,74.5667,80.98,87,100,3.94,IN,1626040130
limenaria,40.6261,24.5786,80.8,60,30,6.85,GR,1626040131
bilibino,68.0546,166.4372,82.42,40,9,15.73,RU,1626040132
severo-yeniseyskiy,60.3725,93.0408,53.69,96,92,5.1,RU,1626040132
sitka,57.0531,-135.33,60.69,59,75,13.8,US,1626040132
victoria,22.2855,114.1577,85.32,86,100,5.99,HK,1626039863
tucuma,-0.1833,-50.05,77.52,88,95,8.86,BR,1626040132
tiksi,71.6872,128.8694,39.2,63,3,6.89,RU,1626040133
kashi,39.4547,75.9797,86.23,15,20,13.42,CN,1626040133
norman wells,65.282,-126.8329,73.44,31,75,8.05,CA,1626040133
nome,64.5011,-165.4064,57.16,76,1,10.36,US,1626040133
rapar,23.5667,70.6333,84.74,77,100,14.12,IN,1626040134
tarrega,41.647,1.1396,76.96,55,80,7.2,ES,1626040134
cayenne,4.9333,-52.3333,77.09,90,91,1.01,GF,1626040054
sharkan,57.2989,53.8712,53.17,74,0,7.94,RU,1626040134
perth,-31.9333,115.8333,61.03,76,75,13.8,AU,1626039986
bondo,3.8146,23.6866,67.57,97,99,0.87,CD,1626040134
tateyama,34.9833,139.8667,79.02,85,81,1.68,JP,1626040135
oranjemund,-28.55,16.4333,52.47,79,26,2.46,NA,1626040135
muroto,33.2833,134.15,77.04,81,100,4.27,JP,1626040135
madaoua,14.073,5.96,85.32,54,75,15.19,NE,1626040135
mabaruma,8.2,-59.7833,78.21,88,40,4.9,GY,1626040135
strezhevoy,60.7333,77.5889,39.18,74,61,4.52,RU,1626040136
ottappalam,10.7667,76.3833,76.05,97,100,3.49,IN,1626040136
lorengau,-2.0226,147.2712,82.42,79,98,7.76,PG,1626040136
morant bay,17.8815,-76.4093,92.62,66,14,10.74,JM,1626040136
kibakwe,-6.7167,36.3667,58.23,75,9,4.0,TZ,1626040137
ostrovnoy,68.0531,39.5131,43.25,75,42,6.98,RU,1626040137
puerto colombia,10.9878,-74.9547,82.49,80,99,16.82,CO,1626040137
brownwood,31.7093,-98.9912,92.97,38,29,3.98,US,1626040137
sungaipenuh,-2.0833,101.3833,65.26,96,100,3.76,ID,1626040138
georgetown,5.4112,100.3354,75.13,98,40,1.01,MY,1626040138
noumea,-22.2763,166.4572,70.0,99,32,7.87,NC,1626040138
gubkinskiy,64.434,76.5026,54.25,58,99,11.27,RU,1626040138
marystown,47.1666,-55.1483,59.02,84,57,7.29,CA,1626040138
tilichiki,60.4667,166.1,63.93,46,16,4.23,RU,1626040139
narva-joesuu,59.4589,28.0408,63.37,88,1,5.99,EE,1626040139
homer,59.6425,-151.5483,61.09,62,90,8.05,US,1626040139
kudahuvadhoo,2.6708,72.8944,81.59,78,95,10.42,MV,1626040139
igarka,67.4667,86.5833,44.67,72,68,6.51,RU,1626040140
siuna,13.7332,-84.7773,72.05,99,100,2.75,NI,1626040140
dengfeng,34.4553,113.0281,75.76,91,2,3.24,CN,1626040140
buchanan,5.8808,-10.0467,78.76,80,41,7.09,LR,1626040140
hwange,-18.3693,26.5019,58.8,46,0,2.19,ZW,1626040141
aykhal,66.0,111.5,46.89,89,96,3.2,RU,1626040141
igrim,63.1906,64.4162,54.7,61,100,7.45,RU,1626040141
pangnirtung,66.1451,-65.7125,56.28,51,34,4.65,CA,1626040141
tuatapere,-46.1333,167.6833,40.39,87,97,4.41,NZ,1626040142
taseyevo,57.2169,94.8978,56.03,86,67,2.82,RU,1626040142
calama,-22.4667,-68.9333,72.09,7,20,21.85,CL,1626039847
creel,27.75,-107.6333,70.09,57,96,7.74,MX,1626040142
ornskoldsvik,63.2909,18.7153,61.75,100,27,4.61,SE,1626040142
peniche,39.3558,-9.3811,67.62,88,43,19.33,PT,1626040143
balakhonovskoye,44.7767,41.7842,75.27,61,0,3.15,RU,1626040143
chumikan,54.7183,135.315,53.47,96,100,0.81,RU,1626040143
kavieng,-2.5744,150.7967,81.88,79,88,12.97,PG,1626040143
stolin,51.8912,26.846,68.54,71,24,5.68,BY,1626040144
kropotkin,45.4375,40.5756,71.55,61,0,0.29,RU,1626040144
walvis bay,-22.9575,14.5053,56.08,94,0,6.91,NA,1626040144
carbondale,37.7273,-89.2168,82.54,77,75,8.05,US,1626040144
bonthe,7.5264,-12.505,75.85,91,100,9.75,SL,1626040145
mehamn,71.0357,27.8492,48.11,81,6,9.89,NO,1626040145
isangel,-19.55,169.2667,77.11,94,75,0.0,VU,1626040145
yellowknife,62.456,-114.3525,76.32,48,75,1.01,CA,1626040145
dekar,-21.5333,21.9333,52.68,33,0,5.86,BW,1626040145
copiapo,-27.3667,-70.3333,53.29,57,2,3.33,CL,1626040146
beringovskiy,63.05,179.3167,60.84,62,81,3.76,RU,1626040146
muisne,0.6,-80.0333,84.31,80,73,8.77,EC,1626040146
hamilton,39.1834,-84.5333,82.78,78,20,3.0,US,1626039915
leon valley,29.4952,-98.6186,91.47,57,40,4.0,US,1626040146
baturaja,-4.1333,104.1667,71.08,99,65,2.37,ID,1626040147
coihaique,-45.5752,-72.0662,40.95,65,75,5.75,CL,1626040147
prokuplje,43.2342,21.5881,78.08,70,100,1.21,RS,1626040147
dehu,18.7167,73.7667,75.16,92,100,4.92,IN,1626040147
pidhorodne,48.5753,35.1068,70.84,67,8,6.11,UA,1626040148
aklavik,68.2191,-135.0107,68.72,68,100,22.66,CA,1626040148
el espinal,16.3333,-94.0667,83.53,67,82,3.74,MX,1626040148
bambous virieux,-20.3428,57.7575,71.22,78,75,12.66,MU,1626040148
roebourne,-20.7833,117.1333,67.06,71,13,1.9,AU,1626040149
komsomolskiy,40.4272,71.7189,77.72,50,40,11.5,UZ,1626040149
robertsport,6.7533,-11.3686,77.65,83,100,10.78,LR,1626040149
puerto madryn,-42.7692,-65.0385,53.76,47,100,10.04,AR,1626040149
mayo,38.8876,-76.5119,91.24,77,49,1.99,US,1626040150
rudbar,30.15,62.6,88.43,25,0,9.13,AF,1626040150
lusambo,-4.9667,23.45,67.5,32,76,2.28,CD,1626040150
pangkalanbuun,-2.6833,111.6167,74.1,99,69,1.88,ID,1626040150
port-cartier,50.0334,-66.8654,61.93,74,100,7.56,CA,1626040151
la romana,18.4273,-68.9728,82.76,83,75,6.91,DO,1626040141
constitucion,-35.3333,-72.4167,49.71,72,96,9.69,CL,1626040151
lang suan,9.9456,99.0785,76.35,89,100,3.78,TH,1626040151
alta,69.9689,23.2717,69.06,52,20,6.91,NO,1626040151
cedar city,37.6775,-113.0619,99.57,9,1,0.0,US,1626040152
castro,-24.7911,-50.0119,54.19,75,14,2.98,BR,1626040152
leningradskiy,69.3833,178.4167,65.46,63,50,5.88,RU,1626040152
boa viagem,-5.1275,-39.7322,78.78,56,83,2.39,BR,1626040152
broken hill,-31.95,141.4333,55.11,33,61,13.8,AU,1626040153
linxia,35.6003,103.2064,56.86,83,42,3.83,CN,1626040153
canavieiras,-15.675,-38.9472,70.92,85,37,6.08,BR,1626040153
muscat,23.6139,58.5922,91.42,68,51,7.56,OM,1626040106
necochea,-38.5473,-58.7368,55.04,51,1,9.55,AR,1626040153
kozluk,38.1938,41.4885,68.25,26,0,5.32,TR,1626040154
meulaboh,4.1363,96.1285,74.93,83,96,4.0,ID,1626040154
ilo,-17.6394,-71.3375,61.25,76,18,3.24,PE,1626040154
salalah,17.0151,54.0924,80.69,89,90,6.91,OM,1626040155
brae,60.3964,-1.353,57.11,89,95,1.45,GB,1626040155
abong mbang,3.9833,13.1833,66.88,98,32,3.22,CM,1626040155
suruc,36.9761,38.425,84.4,46,0,10.38,TR,1626040156
martaban,16.5314,97.6111,78.06,88,87,4.61,MM,1626040156
coquimbo,-29.9533,-71.3436,55.13,82,90,9.22,CL,1626040156
mount darwin,-16.7725,31.5838,53.13,77,1,1.54,ZW,1626040156
gravdal,68.1214,13.5031,58.89,94,75,8.05,NO,1626040157
lac du bonnet,50.2536,-96.0612,94.59,38,49,2.17,CA,1626040157
beyneu,45.3167,55.2,81.19,47,44,8.08,KZ,1626040157
sept-iles,50.2001,-66.3821,61.25,92,75,1.99,CA,1626039876
leh,34.1667,77.5833,64.4,44,15,5.14,IN,1626040157
bridge city,30.0208,-93.8457,89.58,75,40,9.22,US,1626040158
odienne,9.51,-7.5692,71.49,96,87,4.18,CI,1626040158
taoudenni,22.6783,-3.9836,91.87,37,42,10.74,ML,1626040158
otradnoye,59.7775,30.8181,69.85,85,1,4.5,RU,1626039982
nizhneudinsk,54.9076,99.0276,53.8,90,50,1.5,RU,1626040158
suoyarvi,62.0833,32.35,65.5,69,1,4.97,RU,1626040159
cairns,-16.9167,145.7667,69.75,77,90,6.91,AU,1626040104
dudinka,69.4058,86.1778,43.25,85,100,12.21,RU,1626040159
yeniseysk,58.4497,92.1703,60.57,73,100,1.45,RU,1626040159
puerto madero,14.7208,-92.4215,84.51,67,100,4.56,MX,1626040159
molochnoye,59.2917,39.6787,63.07,63,2,5.21,RU,1626040160
nyurba,63.2842,118.3319,60.71,68,94,4.27,RU,1626040160
kenai,60.5544,-151.2583,61.09,55,75,20.71,US,1626040160
guerrero negro,27.9769,-114.0611,78.15,54,13,19.39,MX,1626040160
gilgit,35.9221,74.3087,80.74,60,12,1.92,PK,1626040161
los llanos de aridane,28.6585,-17.9182,73.13,83,20,16.11,ES,1626040161
alofi,-19.0595,-169.9187,80.49,83,7,10.36,NU,1626040161
makat,47.6469,53.3463,79.68,47,9,8.08,KZ,1626040161
sorland,67.667,12.6934,59.07,97,100,21.23,NO,1626040162
kidal,18.4411,1.4078,91.87,31,67,8.72,ML,1626040162
goderich,43.7501,-81.7165,73.56,64,100,9.22,CA,1626040162
bualan,7.75,124.2667,66.87,95,79,2.15,PH,1626040162
qaanaaq,77.484,-69.3632,38.95,66,49,2.66,GL,1626040162
kruisfontein,-34.0033,24.7314,48.13,55,0,3.27,ZA,1626040163
vercelli,45.3231,8.4153,77.86,68,0,1.81,IT,1626040163
yongan,39.6957,113.6871,65.97,95,100,4.45,CN,1626040163
san patricio,28.017,-97.5169,92.12,65,100,16.4,US,1626040163
ossora,59.2353,163.0719,64.18,59,67,3.18,RU,1626040164
yibin,28.7667,104.6238,74.21,95,25,1.32,CN,1626040164
omboue,-1.5746,9.2618,74.19,89,44,6.42,GA,1626040164
iranshahr,27.2025,60.6848,97.14,41,0,4.61,IR,1626039969
bambanglipuro,-7.95,110.2833,53.6,90,20,4.38,ID,1626040164
iberia,29.9502,-91.7507,90.97,62,20,9.22,US,1626040165
shirvan,39.9509,48.8994,75.24,62,0,1.43,AZ,1626040165
gotsu,35.0,132.2167,74.26,92,100,5.93,JP,1626040165
hayden,47.766,-116.7866,95.97,20,1,8.05,US,1626040165
fairbanks,64.8378,-147.7164,71.1,39,1,0.0,US,1626040166
klaksvik,62.2266,-6.589,52.72,97,100,2.93,FO,1626040166
otavalo,0.2333,-78.2667,61.02,70,74,5.01,EC,1626040166
erzin,36.9559,36.2,79.52,76,0,1.01,TR,1626040166
ulaangom,49.9811,92.0667,59.04,71,33,4.63,MN,1626040167
shubarkuduk,49.1447,56.4872,70.18,55,28,8.12,KZ,1626040167
usinsk,65.9939,57.5281,38.55,82,30,7.61,RU,1626040167
hurghada,27.2574,33.8129,89.64,14,0,10.36,EG,1626040167
los alamos,35.8881,-106.307,79.36,61,40,7.0,US,1626039882
ucluelet,48.9329,-125.5528,87.04,84,11,1.01,CA,1626040168
hasaki,35.7333,140.8333,73.8,84,66,5.73,JP,1626040168
avera,33.194,-82.5271,79.48,57,90,9.46,US,1626040168
orimattila,60.8049,25.7296,68.4,88,35,4.94,FI,1626040168
waipawa,-41.4122,175.5153,38.3,76,100,1.5,NZ,1626040169
codrington,-38.2667,141.9667,48.7,58,55,19.48,AU,1626040169
whitianga,-36.8333,175.7,52.02,75,100,23.98,NZ,1626040169
havre-saint-pierre,50.2334,-63.5986,59.36,88,90,4.61,CA,1626040169
zeya,53.75,127.2667,63.55,66,62,1.07,RU,1626040169
invermere,50.5167,-116.0354,88.27,19,60,4.74,CA,1626040170
emerald,-23.5333,148.1667,50.99,60,0,5.75,AU,1626040170
manakara,-22.1333,48.0167,64.56,91,25,4.52,MG,1626040170
ponta delgada,37.7333,-25.6667,66.92,72,40,9.22,PT,1626040170
iqaluit,63.7506,-68.5145,60.53,48,75,6.91,CA,1626040171
whitehorse,60.7161,-135.0538,57.97,47,90,15.99,CA,1626039915
taunggyi,20.7833,97.0333,62.87,96,60,2.39,MM,1626040171
turukhansk,65.8167,87.9833,41.92,69,38,3.67,RU,1626040171
puerto leguizamo,-0.1934,-74.7819,74.59,90,99,1.86,CO,1626040171
mugur-aksy,50.35,90.5,47.95,80,63,5.21,RU,1626040172
socorro,31.6546,-106.3033,100.9,23,20,6.91,US,1626040172
tessalit,20.1986,1.0114,97.2,21,39,10.89,ML,1626040172
vardo,70.3705,31.1107,51.55,80,22,14.07,NO,1626040172
innisfail,-17.5333,146.0333,66.96,76,100,5.01,AU,1626040173
kavaratti,10.5669,72.642,81.86,79,100,24.63,IN,1626040173
waterfoot,53.6929,-2.2525,62.98,91,100,2.42,GB,1626040173
the valley,18.217,-63.0578,84.34,74,20,21.85,AI,1626040173
lagos,6.5833,3.75,80.92,84,94,5.35,NG,1626040172
abilene,32.4487,-99.7331,87.78,57,75,10.36,US,1626040174
caravelas,-17.7125,-39.2481,69.55,83,0,6.13,BR,1626040174
melton mowbray,52.7659,-0.8869,62.49,15,100,6.11,GB,1626040174
shingu,33.7333,135.9833,77.92,79,100,2.73,JP,1626040174
kulhudhuffushi,6.6221,73.07,81.55,81,100,18.43,MV,1626040175
mhlume,-26.0333,31.85,58.91,62,0,3.67,SZ,1626040175
maunabo,18.0072,-65.8993,84.65,86,100,14.79,PR,1626040175
yulara,-25.2406,130.9889,44.44,65,6,8.05,AU,1626040175
najran,17.4924,44.1277,86.65,19,88,3.22,SA,1626039954
wattegama,6.7989,81.4808,77.92,80,93,6.24,LK,1626040176
port augusta,-32.5,137.7667,42.94,90,8,4.21,AU,1626040176
parainen,60.3067,22.301,67.89,90,6,9.04,FI,1626040176
namli,23.4333,75.05,82.92,73,100,1.83,IN,1626040176
navahrudak,53.6,25.8333,65.95,74,28,4.03,BY,1626040177
college,64.8569,-147.8028,70.59,39,75,0.0,US,1626040177
consett,54.854,-1.8316,61.72,83,100,4.72,GB,1626040177
ibiruba,-28.6275,-53.0897,62.31,76,0,6.24,BR,1626040177
kaseda,31.4167,130.3167,76.23,88,100,1.61,JP,1626040178
garmsar,35.2182,52.3409,90.32,23,0,4.32,IR,1626040178
tucuman,-26.8241,-65.2226,66.2,39,100,3.44,AR,1626040178
eureka,40.8021,-124.1637,101.75,75,28,5.99,US,1626040178
nemuro,43.3236,145.575,58.68,97,100,8.25,JP,1626040178
dauphin,51.1494,-100.0502,87.94,35,1,11.5,CA,1626040179
conceicao do araguaia,-8.2578,-49.2647,89.73,40,0,3.44,BR,1626040179
pochutla,15.7432,-96.4661,87.82,74,99,7.83,MX,1626040179
altay,47.8667,88.1167,62.91,59,100,0.67,CN,1626040179
baykit,61.67,96.37,58.3,91,97,2.26,RU,1626040180
mocuba,-16.8392,36.9856,62.04,97,8,2.37,MZ,1626040180
fort-shevchenko,44.5086,50.263,78.84,55,0,7.29,KZ,1626040180
barraute,48.4335,-77.6328,77.18,43,52,6.4,CA,1626040180
kawalu,-7.3817,108.2082,69.91,94,91,3.4,ID,1626040181
port-gentil,-0.7193,8.7815,76.96,88,75,8.05,GA,1626040181
sulangan,11.1373,123.7228,83.66,75,73,7.58,PH,1626040181
dauriya,49.9333,116.8667,64.62,69,100,8.03,RU,1626040181
cururupu,-1.8283,-44.8683,74.44,96,74,3.02,BR,1626040182
mana,5.6592,-53.7767,79.34,84,30,8.61,GF,1626040182
lesogorsk,56.0458,99.5136,54.41,87,3,1.59,RU,1626040182
dhuwaran,22.2333,72.8,82.76,79,98,0.85,IN,1626040182
lata,40.1629,-8.3327,64.04,87,46,6.67,PT,1626040183
cosala,24.4125,-106.6908,88.41,55,79,5.95,MX,1626040183
labuhan,-6.8844,112.2051,76.37,87,5,8.41,ID,1626040183
devaprayag,30.15,78.6167,79.29,87,97,3.09,IN,1626040183
mecca,21.4267,39.8261,92.28,19,28,7.78,SA,1626039987
hofn,64.2539,-15.2082,52.88,89,11,10.16,IS,1626040184
sulina,45.1559,29.6536,71.85,74,4,8.39,RO,1626040184
akdepe,42.0551,59.3788,78.8,21,0,6.64,TM,1626040184
mount isa,-20.7333,139.5,56.43,37,79,8.52,AU,1626040184
baturyn,51.3457,32.8779,69.4,68,30,5.95,UA,1626040185
sasaram,24.951,84.0149,82.81,82,98,7.72,IN,1626040185
grantham,52.9115,-0.6418,63.32,88,75,6.91,GB,1626040185
karaidel,55.8337,56.9069,53.28,82,58,4.94,RU,1626040185
vologda,59.2187,39.8886,63.14,64,2,5.1,RU,1626040186
opuwo,-18.0607,13.84,59.83,28,60,3.29,NA,1626040186
garowe,8.4054,48.4845,81.46,46,29,28.43,SO,1626040186
prince albert,53.2001,-105.7677,80.55,39,75,16.11,CA,1626039897
chernyshevskiy,63.0128,112.4714,59.27,66,48,2.75,RU,1626040186
udachnyy,66.4167,112.4,46.71,83,85,6.91,RU,1626040186
kieta,-6.2167,155.6333,81.37,80,74,4.34,PG,1626040187
yingcheng,30.95,113.55,89.65,80,100,12.66,CN,1626040187
chesma,53.8111,60.6533,56.66,74,100,12.8,RU,1626040187
pavlodar,52.3,76.95,57.0,82,0,2.24,KZ,1626040187
ust-kalmanka,52.1207,83.305,58.93,93,66,6.2,RU,1626040188
kondinskoye,59.6481,67.41,46.33,73,12,5.57,RU,1626040188
teahupoo,-17.8333,-149.2667,76.96,78,41,20.47,PF,1626040188
port blair,11.6667,92.75,81.37,83,100,14.2,IN,1626040188
espita,21.0167,-88.3167,90.59,45,98,10.74,MX,1626040189
saint-georges,12.0564,-61.7485,80.28,89,40,20.71,GD,1626040189
qeshm,26.9581,56.2719,91.29,85,98,12.93,IR,1626040189
qaqortoq,60.7167,-46.0333,48.7,99,100,4.23,GL,1626040189
pringsewu,-5.3582,104.9744,72.48,98,99,1.52,ID,1626040190
burgos,42.3394,-3.7079,61.21,88,20,10.36,ES,1626040190
anito,12.4497,125.2886,79.68,89,100,5.7,PH,1626040190
tautira,-17.7333,-149.15,82.42,77,34,19.73,PF,1626040190
tiarei,-17.5333,-149.3333,82.42,79,27,20.04,PF,1626040190
casa grande,32.8795,-111.7573,109.27,25,1,3.0,US,1626040182
kuching,1.55,110.3333,75.42,94,40,2.3,MY,1626040191
manaira,-7.7061,-38.1544,72.32,66,98,10.78,BR,1626040191
zhirnovsk,50.9845,44.7735,66.27,66,0,6.15,RU,1626040191
havelock,34.8791,-76.9013,87.75,83,50,7.0,US,1626040191
dunedin,-45.8742,170.5036,44.8,52,89,3.0,NZ,1626040192
magalia,39.8121,-121.5783,108.54,16,0,3.0,US,1626040192
dzilam gonzalez,21.2833,-88.9333,88.14,60,79,13.22,MX,1626040192
umm kaddadah,13.6017,26.6876,86.16,45,99,16.15,SD,1626040192
port moresby,-9.4431,147.1797,74.62,94,20,4.61,PG,1626040193
olinda,-8.0089,-34.8553,74.93,78,75,9.22,BR,1626040193
praia,14.9215,-23.5087,73.94,68,20,12.66,CV,1626040193
sorkjosen,69.8,20.9333,63.07,78,98,3.09,NO,1626040193
sola,-13.8833,167.55,81.27,89,75,4.61,VU,1626040193
danilov,58.1908,40.1717,60.48,71,0,2.04,RU,1626040194
stillwater,36.1156,-97.0584,83.84,61,75,1.99,US,1626040194
banda aceh,5.5577,95.3222,79.23,70,97,12.48,ID,1626040194
alyangula,-13.8483,136.4192,64.27,94,99,0.0,AU,1626040194
abeche,13.8292,20.8324,79.72,64,93,21.94,TD,1626040195
vytegra,61.0064,36.4481,63.57,89,4,6.8,RU,1626040195
saquarema,-22.92,-42.5103,71.62,86,0,6.02,BR,1626040195
tuni,17.35,82.55,79.48,87,79,5.41,IN,1626040196
missoula,47.0166,-113.8009,87.53,16,0,11.61,US,1626039969
nipawin,53.3668,-104.0009,82.44,47,75,2.3,CA,1626039915
lillooet,50.6856,-121.942,84.92,26,14,2.17,CA,1626040196
baherden,38.4362,57.4316,82.38,28,72,3.24,TM,1626040196
srandakan,-7.9386,110.2506,53.73,90,19,4.29,ID,1626040196
marawi,7.9986,124.2928,66.65,93,42,3.15,PH,1626040197
savannakhet,16.566,104.751,74.59,91,36,3.47,LA,1626040197
langsa,4.4683,97.9683,73.76,94,100,3.33,ID,1626040197
madisonville,37.3281,-87.4989,81.03,75,84,1.99,US,1626040197
yima,34.7381,111.8839,73.04,89,0,5.61,CN,1626040198
santiago del estero,-27.7951,-64.2615,64.8,62,100,1.66,AR,1626040198
caranavi,-15.8167,-67.55,67.75,76,40,2.19,BO,1626040198
impfondo,1.6381,18.0667,72.37,87,81,2.21,CG,1626040198
lazaro cardenas,17.9583,-102.2,85.32,71,80,7.36,MX,1626040199
wangaratta,-36.3667,146.3333,43.3,100,40,0.0,AU,1626040199
san francisco,37.7749,-122.4194,100.78,74,45,5.99,US,1626040073
sepuka,-4.75,34.5333,61.86,60,19,11.23,TZ,1626040199
batagay-alyta,67.8006,130.4114,40.03,90,100,4.21,RU,1626040199
xiongzhou,25.1167,114.3,76.46,90,76,2.71,CN,1626040200
inirida,3.8653,-67.9239,79.34,89,80,1.88,CO,1626040200
harper,4.375,-7.7169,76.28,79,28,8.84,LR,1626040200
kununurra,-15.7667,128.7333,55.38,88,21,0.0,AU,1626040200
verkh-usugli,52.7,115.1667,55.47,82,99,0.65,RU,1626040200
tura,25.5198,90.2201,75.67,83,98,2.68,IN,1626040201
sur,22.5667,59.5289,89.08,61,59,4.7,OM,1626040201
guilin,25.2819,110.2864,77.11,93,78,2.08,CN,1626040201
williams lake,52.1415,-122.1445,79.23,29,20,4.0,CA,1626039916
kupang,-10.1667,123.5833,73.98,88,20,8.05,ID,1626040202
la orilla,17.9833,-102.2333,85.03,71,85,7.47,MX,1626040202
gull lake,50.1001,-108.4847,86.36,33,12,23.22,CA,1626040203
ayr,55.4627,-4.6339,62.58,82,40,4.61,GB,1626040203
buinsk,54.95,48.2833,64.29,67,0,7.63,RU,1626040204
la ronge,55.1001,-105.2842,82.65,30,40,9.22,CA,1626040204
katangli,51.7102,143.2326,61.23,93,94,3.74,RU,1626040205
junction city,39.0286,-96.8314,82.62,47,1,3.0,US,1626040205
nelson bay,-32.7167,152.15,48.96,79,92,4.14,AU,1626040205
mahibadhoo,3.7833,72.9667,82.18,78,100,13.49,MV,1626040205
okahandja,-21.9833,16.9167,57.51,29,0,7.4,NA,1626040206
lundazi,-12.2929,33.1782,56.17,79,18,5.82,ZM,1626040206
langxiang,46.95,128.8833,70.72,91,68,1.74,CN,1626040206
grindavik,63.8424,-22.4338,55.56,100,90,14.97,IS,1626040206
abnub,27.2696,31.1511,88.02,22,44,6.51,EG,1626040207
neuquen,-38.9516,-68.0591,55.29,35,0,4.61,AR,1626040207
novopokrovka,49.8425,36.5477,77.38,86,49,5.5,UA,1626040207
darnah,32.767,22.6367,77.68,73,0,14.99,LY,1626040207
aswan,24.0934,32.907,91.6,23,17,8.28,EG,1626040208
nongan,44.382,125.1685,75.61,88,72,8.3,CN,1626040208
daru,-9.0763,143.2092,78.13,90,30,14.2,PG,1626040208
de-kastri,51.4667,140.7833,62.26,98,100,2.64,RU,1626040208
